,City,Lat,Lng,Max_Temp,Humidity,Cloudiness,Wind_speed,Country,Date
0,rikitea,-23.12,-134.97,72.9,90,96,12.01,PF,1596609330
1,saint-philippe,-21.36,55.77,72,64,47,13.87,RE,1596609330
2,taolanaro,62.46,-114.35,59,100,75,9.17,CA,1596609092
3,yellowknife,-18.37,-66.97,36.52,77,0,2.82,BO,1596609331
4,poopo,-38,-57.56,60.01,100,100,3.36,AR,1596609032
5,mar del plata,-21.21,-159.78,73.4,100,100,11.41,CK,1596609331
6,avarua,-25.24,130.99,73.4,33,75,11.41,AU,1596609332
7,yulara,-0.74,-90.35,66,95,99,3,EC,1596609332
8,puerto ayora,-54.8,-68.3,48.2,39,40,4.7,AR,1596609332
9,ushuaia,-21.2,-175.2,68,82,20,5.82,TO,1596609333
10,vaini,-34.53,20.04,35.6,93,4,4.7,ZA,1596609333
11,bredasdorp,-33.87,121.9,55.4,100,75,17.22,AU,1596609333
12,esperance,18.8,110.4,84.65,76,100,10.51,CN,1596609334
13,wanning,25.47,-80.48,82.4,83,1,5.82,US,1596609334
14,homestead,44.9,-89.77,54,71,40,3.36,US,1596609334
15,marathon,71.69,128.87,64.9,44,86,2.8,RU,1596609334
16,tiksi,-33.93,18.42,54,65,0,12.75,ZA,1596609335
17,cape town,42.6,-73.97,68,89,2,1.01,US,1596609335
18,albany,20.7,-105.2,82,94,93,3.02,MX,1596609335
19,ixtapa,42.1,-79.24,62.01,87,90,8.05,US,1596609174
20,jamestown,-38.55,-58.74,61,87,100,14,AR,1596609286
21,necochea,39.45,-86.18,57.99,97,0,3.18,US,1596609336
22,bud,22.29,114.16,86,73,100,8.99,HK,1596609336
23,victoria,70.47,-68.59,39.2,100,90,10.29,CA,1596609337
24,samalaeulu,-46.13,167.68,48,88,58,3.15,NZ,1596609337
25,clyde river,5.41,100.34,89.6,66,20,9.17,MY,1596609337
26,tuatapere,50.68,156.12,54.59,86,100,1.66,RU,1596609338
27,georgetown,-33.65,115.33,62.01,76,27,8.01,AU,1596609338
28,samusu,11.67,92.75,84.36,76,100,21.39,IN,1596609339
29,severo-kurilsk,30.95,118.76,96.84,54,84,5.06,CN,1596609339
30,busselton,-42.88,147.33,45,75,75,18.34,AU,1596609339
31,port blair,-20.33,-40.29,64.4,93,75,4.7,BR,1596609340
32,xuanzhou,32.67,-17.1,71.6,73,40,5.82,PT,1596609340
33,hobart,65.61,-37.64,39.2,100,2,4.38,GL,1596609340
34,vila velha,-53.15,-70.92,37.4,78,100,10.29,CL,1596609341
35,ponta do sol,-45.58,-72.07,28.4,92,67,3.09,CL,1596609342
36,tasiilaq,-46.19,168.86,48,88,15,3.44,NZ,1596609342
37,punta arenas,38.73,-27.07,73.4,94,40,7.58,PT,1596609342
38,vaitupu,3.07,172.79,83.8,76,49,14.94,KI,1596609343
39,coihaique,-46.6,168.33,48,88,34,6.26,NZ,1596609343
40,mataura,22.08,-159.32,80.6,69,75,17.22,US,1596609345
41,praia da vitoria,-25.3,152.85,72,74,9,3,AU,1596609345
42,butaritari,31.98,35.69,75.2,60,20,13.87,JO,1596609345
43,bluff,28.23,83.98,81.82,72,94,1.5,NP,1596609346
44,kapaa,-9.8,-139.03,79.25,76,37,20.83,PF,1596609346
45,hervey bay,52.47,96.11,81.93,32,4,1.32,RU,1596609347
46,yarqa,-22.97,-42.03,67.19,70,0,8.48,BR,1596609347
47,pokhara,-2.57,150.8,83.1,79,100,15.5,PG,1596609348
48,atuona,-34.42,19.23,39,94,0,7.36,ZA,1596609348
49,toora-khem,66.83,70.83,71.22,41,0,11.92,RU,1596609349
50,arraial do cabo,-20.52,57.52,68,77,40,6.93,MU,1596609349
51,kavieng,38.52,-28.7,69.8,88,75,6.93,PT,1596609349
52,hermanus,46.74,-119.9,71.6,67,1,5.06,US,1596609350
53,yar-sale,29.96,122.3,81.52,86,100,25.3,CN,1596609350
54,souillac,59.7,30.79,64.4,88,75,6.71,RU,1596609351
55,ribeira grande,36.68,-101.48,71.6,68,40,18.34,US,1596609351
56,mattawa,13.43,-86.8,65.86,100,77,3.98,HN,1596609352
57,shenjiamen,-20.73,139.5,86,13,0,10.29,AU,1596609352
58,illoqqortoormiut,-33.02,27.91,53.6,76,20,9.17,ZA,1596609353
59,nikolskoye,31.6,131.37,86,79,40,17.22,JP,1596609353
60,guymon,-7.51,-63.02,73.85,57,0,2.37,BR,1596609353
61,san marcos de colon,63.84,-22.43,48.2,100,90,12.75,IS,1596609353
62,mount isa,7.98,49.82,90.36,45,79,30.56,SO,1596609354
63,east london,32.5,62.5,91.87,11,0,6.46,AF,1596609355
64,nichinan,-34,24.73,51.01,80,27,1.88,ZA,1596609355
65,humaita,-33.59,26.89,55.89,66,94,1.41,ZA,1596609355
66,grindavik,55.7,37.38,71.6,56,100,6.71,RU,1596609190
67,eyl,13.52,35.77,71.64,87,100,13.82,SD,1596609356
68,farah,50.63,38.69,71.91,56,0,10.8,RU,1596609357
69,kruisfontein,30.33,10.85,92.35,10,0,13,LY,1596609357
70,port alfred,32.35,-85.2,78.8,94,1,3.58,US,1596609357
71,marfino,72.79,-56.15,37.74,76,97,5.66,GL,1596609358
72,doka,34.64,-120.46,57.2,93,95,5.82,US,1596609118
73,alekseyevka,-9.17,-60.63,72.37,57,0,1.99,BR,1596609358
74,nalut,57.79,-152.41,60.8,63,1,12.75,US,1596609359
75,russell,40.69,-76.2,66.99,97,0,3.31,US,1596609359
76,upernavik,-20.34,57.76,72,77,40,6.93,MU,1596609359
77,lompoc,69.45,-133.04,48.2,87,90,6.93,CA,1596609360
78,aripuana,41.14,-73.36,73.99,88,0,1.01,US,1596609360
79,teneguiban,39.95,-74.99,75.99,83,75,9.17,US,1596609238
80,kodiak,53.94,139.92,53.4,77,100,4.72,RU,1596609360
81,pottsville,70.63,147.92,61.65,51,10,3.04,RU,1596609361
82,bambous virieux,40.28,97.2,93.11,21,44,13.42,CN,1596609361
83,tuktoyaktuk,55.74,-97.86,66.2,72,75,4.7,CA,1596609362
84,westport,17.02,54.09,84.2,74,75,4.7,OM,1596609362
85,maple shade,-23.53,148.17,82.4,28,20,6.93,AU,1596609363
86,mnogovershinnyy,5.88,38.98,62.69,78,82,2.82,ET,1596609363
87,chokurdakh,18.2,-73.75,80.26,82,92,7.7,HT,1596609363
88,yumen,-20.23,164.02,71.31,65,3,3.27,NC,1596609363
89,ruatoria,22.68,-3.98,98.01,13,9,1.39,ML,1596609364
90,thompson,-33.7,-53.46,55.38,88,0,7.38,UY,1596609364
91,salalah,-33.92,25.57,50,87,75,6.93,ZA,1596609365
92,emerald,-21.53,-46.64,50.34,77,0,5.88,BR,1596609366
93,kibre mengist,41.28,-70.1,72,94,1,12.75,US,1596609146
94,les cayes,18.42,-64.62,82,85,100,8.99,VG,1596609366
95,poum,-34.73,135.87,51.44,58,20,20.47,AU,1596609365
96,taoudenni,11.59,37.39,63.55,85,100,2.39,ET,1596609367
97,chuy,53.41,-2.98,66.2,77,40,13.87,GB,1596609285
98,port elizabeth,-5.23,-75.68,70.81,78,27,1.86,PE,1596609367
99,caconde,47.47,84.87,86.86,23,4,11.27,KZ,1596609368
100,nantucket,4.14,96.13,86.04,61,100,4.63,ID,1596609368
101,road town,18.73,-103.68,78.55,87,34,2.68,MX,1596609368
102,port lincoln,19.73,-155.09,75.2,73,90,5.82,US,1596609261
103,bahir dar,-22.04,-63.68,68.99,44,0,7.16,BO,1596609369
104,liverpool,66.77,123.37,74.7,39,0,10.38,RU,1596609369
105,lagunas,27.2,60.68,102.2,13,0,4.7,IR,1596609370
106,zaysan,63.79,74.52,65.62,66,100,9.37,RU,1596609370
107,meulaboh,62.67,131.17,79.56,28,0,6.04,RU,1596609371
108,coahuayana,37.1,-113.58,84.99,16,1,6.93,US,1596609250
109,hilo,7.04,134.26,75.2,94,90,8.05,PW,1596609372
110,yacuiba,-15.86,-38.88,64.4,77,75,4.7,BR,1596609372
111,zhigansk,-3.67,152.43,82.36,78,90,9.51,PG,1596609373
112,iranshahr,40.8,-124.16,60.01,100,100,5.01,US,1596609188
113,muravlenko,64.38,-173.3,50,71,40,13.42,RU,1596609374
114,borogontsy,-2.87,-67.8,73.49,70,41,0.92,BR,1596609113
115,saint george,60.38,92.63,75.18,41,100,7.65,RU,1596609375
116,belushya guba,78.22,15.64,46.4,93,75,3.36,SJ,1596609375
117,kloulklubed,43.3,52.8,80.24,32,18,16.71,KZ,1596609376
118,belmonte,-42.78,147.06,45,74,97,5.01,AU,1596609376
119,attawapiskat,-1.77,-55.87,74.44,88,37,3.58,BR,1596609377
120,hihifo,-6.84,-79.93,58.82,92,5,9.93,PE,1596609377
121,namatanai,62.23,-6.59,53.6,100,100,10.29,FO,1596609377
122,eureka,-41.87,-73.82,39.99,100,40,8.05,CL,1596609378
123,provideniya,55.93,158.7,60.71,48,8,10.69,RU,1596609379
124,tonantins,-0.6,73.08,82.38,74,100,13.18,MV,1596609379
125,teya,31.61,34.76,82,54,40,9.98,IL,1596609380
126,longyearbyen,-15.62,30.42,77.38,43,0,2.77,ZM,1596609380
127,zhanaozen,11,122.67,82.89,83,100,8.14,PH,1596609381
128,new norfolk,53.66,52.44,77.76,68,8,14.36,RU,1596609381
129,oriximina,0.81,24.43,77.18,74,100,2.64,CD,1596609381
130,pimentel,-2.02,147.27,82.38,80,100,12.19,PG,1596609382
131,klaksvik,-4.28,-55.98,74.1,71,16,1.54,BR,1596609382
132,katha,-23.13,150.73,78.8,47,20,9.17,AU,1596609382
133,ancud,62.88,152.43,65.35,35,95,6.73,RU,1596609383
134,esso,53.64,15.62,57.99,67,88,1.01,PL,1596609370
135,saleaula,33.19,-82.53,73.4,69,75,1.88,US,1596609384
136,hithadhoo,41.53,-87.42,57.2,100,1,2.64,US,1596609183
137,gat,73.51,80.55,46,95,100,21.92,RU,1596609385
138,luangwa,7.77,-72.22,65.37,91,91,4.54,VE,1596609385
139,dingle,29.03,21.55,86.92,29,0,8.34,LY,1596609385
140,buguruslan,-28.77,114.6,64.4,63,75,14.99,AU,1596609386
141,yangambi,70.86,29.09,51.8,87,75,5.82,NO,1596609386
142,lorengau,40.79,-77.86,64,88,1,3.11,US,1596609182
143,itaituba,-20.41,57.7,68,77,40,6.93,MU,1596609387
144,yeppoon,71.04,27.85,51.8,87,75,4.7,NO,1596609387
145,seymchan,54.05,122.9,69.49,58,89,1.81,RU,1596609387
146,lobez,-24.79,-50.01,47.59,97,38,4.74,BR,1596609287
147,nizhneyansk,11.57,76.67,70.14,84,100,9.1,IN,1596609388
148,avera,55.07,57.55,74.93,71,87,10.85,RU,1596609388
149,katsiveli,-19.55,169.27,69.01,68,15,6.55,VU,1596609389
150,griffith,69.38,178.42,35.28,90,100,12.62,RU,1596609389
151,barentsburg,-21.55,167.88,67.06,70,78,4.7,NC,1596609389
152,dikson,60.72,-135.05,57.2,58,75,8.05,CA,1596609390
153,san cristobal,-8.93,125.41,72.21,58,29,1.92,TL,1596609390
154,jalu,38.53,141.13,89.6,78,75,9.17,JP,1596609390
155,geraldton,-46.28,169.85,48.99,73,0,5.28,NZ,1596609391
156,berlevag,43.94,15.45,70,68,20,3.36,HR,1596609392
157,state college,50.27,-5.05,63,93,95,12.75,GB,1596609128
158,mahebourg,-15.2,12.15,67.44,82,31,4.23,AO,1596609392
159,mehamn,38.42,-121.42,68,72,1,12.75,US,1596609393
160,urusha,-30.38,153.1,66,63,0,5.82,AU,1596609393
161,castro,29.22,119.48,92.68,63,88,5.44,CN,1596609393
162,masinigudi,50.68,106.18,79.92,45,96,6.22,RU,1596609394
163,minyar,77.48,-69.36,29.23,86,2,4.38,GL,1596609394
164,isangel,71.92,114.08,81.28,36,60,11.5,RU,1596609395
165,leningradskiy,49.5,2.42,62.01,82,0,3.36,FR,1596609395
166,tadine,45.52,-122.68,73.99,64,1,6.93,US,1596608891
167,whitehorse,53.57,142.95,58.37,75,100,11.32,RU,1596609395
168,airai,3.04,29.54,70.57,84,100,1.61,CD,1596609396
169,wakuya,-34.62,-68.33,50.05,62,0,3.67,AR,1596609307
170,kaitangata,32.51,-110.92,89.01,28,0,3,US,1596609397
171,umzimvubu,-9.66,120.26,80.96,62,13,12.39,ID,1596609397
172,biograd na moru,-9.37,30.12,71.92,43,0,7.36,ZM,1596609398
173,truro,11.03,-63.86,79.57,84,97,10.22,VE,1596609398
174,namibe,33.73,135.98,84.2,83,40,5.82,JP,1596609394
175,laguna,69.41,86.18,66.2,59,65,6.71,RU,1596609125
176,sawtell,19.22,-104.7,79.14,87,100,5.08,MX,1596609399
177,lanxi,71.29,-156.79,44.6,81,90,9.17,US,1596609399
178,dzhida,2.04,45.34,78.8,69,75,17.22,SO,1596609343
179,qaanaaq,51.59,-3,64.99,94,20,3,GB,1596609400
180,saskylakh,-37.62,-73.65,49.55,90,3,10.47,CL,1596609400
181,clermont,49.78,-74.85,60.8,100,90,9.17,CA,1596609400
182,portland,40.16,-8.33,61,83,0,1.72,PT,1596609401
183,okha,-14.27,50.17,74.98,66,85,15.17,MG,1596609401
184,rolim de moura,-31.42,-64.5,73.4,40,0,14.99,AR,1596609402
185,bolungarvik,-6.47,16.82,77.05,52,0,1.7,CD,1596609402
186,watsa,-3.4,38.36,67.33,64,25,7.61,KE,1596609403
187,san rafael,60.57,27.2,60.01,87,75,8.05,FI,1596609403
188,catalina,2.67,72.89,82.8,77,100,12.1,MV,1596609403
189,waingapu,31.35,27.25,78.8,78,0,11.41,EG,1596609392
190,mporokoso,14.9,-24.5,75.9,79,41,3.65,CV,1596609404
191,la asuncion,46.27,-96.61,64.4,72,1,6.93,US,1596609404
192,shingu,40.43,71.72,91.4,17,0,4.7,UZ,1596609405
193,dudinka,35.13,140.3,93.99,66,20,16.11,JP,1596609406
194,san patricio,-45.87,-67.5,42.8,60,0,6.91,AR,1596609406
195,barrow,50.39,30.37,73.99,56,97,4.47,UA,1596609407
196,mogadishu,40.6,-124.16,60.01,89,100,3,US,1596609407
197,newport,39.92,33.23,75,43,0,3.36,TR,1596609407
198,lebu,25.5,-76.65,82.89,79,0,14.16,BS,1596609408
199,chapais,66.04,-17.34,51.8,76,90,3.36,IS,1596609408
200,lata,40.39,-5.76,73,43,0,2.46,ES,1596609408
201,sambava,61.73,17.1,57,98,97,1.01,SE,1596609409
202,wanderlandia,54.37,71.76,80.31,44,0,13.02,RU,1596609409
203,villa carlos paz,-4.97,23.45,81.05,50,74,2.89,CD,1596609409
204,kasongo-lunda,-25.17,45.05,74.44,48,0,7.23,MG,1596609410
205,wundanyi,-31.39,-58.02,63,83,0,10.07,AR,1596609410
206,hamina,10.57,72.64,86,74,90,13.87,IN,1596609410
207,palabuhanratu,68.75,161.3,42.78,72,100,9.8,RU,1596609184
208,kudahuvadhoo,20.15,74.23,84.92,68,90,9.22,IN,1596609411
209,marsa matruh,29.27,82.18,75,95,65,6.06,NP,1596609412
210,sao filipe,49.92,-109.48,65.46,43,0,6.42,CA,1596609412
211,wahpeton,56.34,114.88,60.87,88,100,3.2,RU,1596609412
212,komsomolskiy,8,124.29,84,81,74,5.01,PH,1596609413
213,tsihombe,46.56,43.65,73.4,43,15,17.9,RU,1596609413
214,katsuura,62.67,135.6,79.63,24,0,1.95,RU,1596609413
215,comodoro rivadavia,33.64,42.83,96.89,23,0,17.54,IQ,1596609414
216,zhanatas,-45.42,167.72,45.88,87,46,0.47,NZ,1596609414
217,vyshneve,53.51,142.97,58.71,74,100,11.16,RU,1596609414
218,fortuna,43.8,87.6,89.6,25,0,4.47,CN,1596609415
219,elmadag,50.85,37.36,73.4,49,0,4.47,RU,1596609415
220,dunmore town,-8.84,13.23,71.6,88,75,2.24,AO,1596609392
221,husavik,1.95,34.95,69.12,65,70,4.68,UG,1596609416
222,bejar,29.6,-90.72,78.01,100,1,3.13,US,1596609131
223,hudiksvall,57.05,-135.33,55.4,87,90,20.8,US,1596609416
224,poltavka,11.14,123.72,83.5,77,97,10.31,PH,1596609417
225,lusambo,42.25,-75.83,64,100,40,4.7,US,1596609417
226,burkhala,-24.87,113.63,68,64,0,20.8,AU,1596609417
227,beloha,60.47,166.1,57.83,67,99,13.02,RU,1596609418
228,concordia,-26.37,-56.07,62.13,67,0,6.6,PY,1596609418
229,kavaratti,-3.37,135.48,85.51,65,64,3.44,ID,1596609419
230,cherskiy,10.62,104.18,84.2,74,40,16.11,KH,1596609419
231,lasalgaon,46.95,24.05,71.6,73,8,2.24,RO,1596609420
232,jumla,53.19,158.38,66.2,63,0,11.18,RU,1596609420
233,maple creek,40.81,111.65,86,42,20,6.71,CN,1596609420
234,taksimo,57.05,54.92,65.8,87,100,12.59,RU,1596609421
235,marawi,43.46,13.55,66,100,100,10.29,IT,1596609421
236,remontnoye,60.92,-46.05,42.8,81,40,4.7,GL,1596609422
237,khandyga,-32.5,137.77,57.2,41,100,11.41,AU,1596609423
238,tabiauea,35.73,140.83,97,74,20,11.41,JP,1596609423
239,hit,26.41,111.6,97.27,44,19,7.67,CN,1596609423
240,te anau,62.85,34.83,60.6,95,100,15.12,RU,1596609423
241,ekhabi,-16.48,-151.75,77.72,78,2,13.89,PF,1596609424
242,urumqi,58.81,-122.7,55.4,76,40,3.36,CA,1596609189
243,yablonovo,-37.83,140.77,48.2,76,75,12.75,AU,1596609424
244,bargal,45.12,42.51,73.4,35,0,8.95,RU,1596609425
245,luanda,61.28,108.01,77.92,42,0,10.13,RU,1596609425
246,amudat,-16.66,-48.61,57.2,50,0,5.82,BR,1596609426
247,houma,43.08,-2.51,53.01,100,75,3.15,ES,1596609426
248,sitka,37.78,-121.98,62.01,82,90,10.29,US,1596609244
249,sulangan,68.22,-135.01,53.6,76,75,10.29,CA,1596609427
250,broome,51.03,-4.22,66,92,20,10,GB,1596609428
251,carnarvon,34.68,112.45,84.99,1,100,11.43,CN,1596609429
252,ambodifototra,25.12,114.3,84.79,78,100,9.55,CN,1596609429
253,tilichiki,11.18,40.02,73.36,63,100,3.44,ET,1596609429
254,yataity,39.05,-27.98,72.21,93,16,7.09,PT,1596609430
255,nabire,63.75,-68.51,57.2,82,75,8.05,CA,1596609430
256,warqla,68.05,166.44,49.12,58,100,6.82,RU,1596609430
257,kampot,65.85,74.49,70.5,42,49,6.4,RU,1596609430
258,wahran,70.24,22.35,55.99,100,75,5.82,NO,1596609431
259,taga,67.67,12.69,55.4,93,75,8.05,NO,1596609431
260,yelizovo,39.48,62.91,90.55,15,0,17.6,TM,1596609431
261,hohhot,-38.27,141.97,47.48,75,100,12.06,AU,1596609431
262,yelovo,37.93,102.64,89.58,30,92,12.84,CN,1596609432
263,castelfidardo,-6.66,-69.87,70.79,72,0,1.19,BR,1596609432
264,narsaq,28.46,119.91,93.42,54,73,7.92,CN,1596609432
265,port augusta,-16.62,-72.71,56.64,78,55,8.28,PE,1596609433
266,hasaki,-20.42,-63.28,63.27,51,0,6.26,BO,1596609434
267,lengshuitan,64.25,-15.21,50.76,92,100,21.43,IS,1596609434
268,povenets,-36.31,-57.68,59.36,94,100,7.63,AR,1596609435
269,faanui,39.23,106.34,79.41,46,51,14.18,CN,1596609435
270,fort nelson,19.97,-102.07,59,92,99,1.01,MX,1596609435
271,mount gambier,33.43,-117.61,68,87,46,7.2,US,1596609436
272,spitsevka,64,44.45,65.62,80,100,7.81,RU,1596609436
273,yerbogachen,50.72,136.63,51.85,94,100,7.76,RU,1596609436
274,silvania,39.34,29.26,80.8,35,0,4.29,TR,1596609437
275,udala,-7.95,110.28,80.6,68,39,13,ID,1596609437
276,san ramon,31.85,-112.83,91,40,0,1.01,MX,1596609437
277,aklavik,46.84,74.98,87.8,35,0,8.95,KZ,1596609438
278,northam,1.17,108.97,84.6,75,31,11.59,ID,1596609438
279,jiddah,29.58,-9.5,72.95,44,41,1.52,MA,1596609166
280,luoyang,41.81,126.91,81.12,71,99,5.7,CN,1596609439
281,xiongzhou,-20.94,55.29,72,60,75,19.46,RE,1596609439
282,bati,-20.01,57.66,72,63,97,8.01,MU,1596609440
283,lagoa,-17.35,-65.87,48.2,36,0,1.14,BO,1596609440
284,iqaluit,41.37,-73.41,69.8,83,1,5.82,US,1596609440
285,bilibino,-12.07,134.27,79.66,61,10,12.1,AU,1596609441
286,pangody,-38.7,-73.17,46.4,100,20,4.7,CL,1596609441
287,oksfjord,60.15,15.19,55.99,82,75,4.7,SE,1596609441
288,sorland,37.72,-25.43,71.6,88,75,10.29,PT,1596609442
289,seydi,-17.53,146.03,70,66,0,3,AU,1596609442
290,codrington,-42.72,170.97,54.14,83,99,4.34,NZ,1596609442
291,wuwei,3.46,8.55,75.2,100,20,6.93,GQ,1596609443
292,eirunepe,-19.06,-169.92,73.4,94,9,2.24,NU,1596609351
293,lishui,-5.12,-60.38,74.23,63,11,0.85,BR,1596609443
294,camana,54.77,-101.86,61.52,91,0,5.28,CA,1596609444
295,boyuibe,-1.25,-78.62,41,83,70,3.51,EC,1596609444
296,hofn,-33.01,17.94,37.4,60,0,4.7,ZA,1596609445
297,mys shmidta,69.7,170.31,32.92,98,100,14.09,RU,1596609445
298,dolores,57.13,43.81,73.53,52,0,3.13,RU,1596609446
299,shitanjing,24.48,118.08,84.2,83,75,4.47,CN,1596609446
300,tlazazalca,47.33,-79.43,53.6,93,90,8.05,CA,1596609446
301,san clemente,20.43,99.88,84.2,79,75,6.93,TH,1596609447
302,karpogory,42.6,-84.38,55,100,1,4.79,US,1596609447
303,solnechnyy,-34.65,-59.43,66.99,80,81,1.99,AR,1596609447
304,emet,-22.95,30.48,58.28,66,71,6.96,ZA,1596609186
305,bambanglipuro,51.65,84.32,77.09,46,8,10.04,RU,1596609448
306,sonoita,61.81,51.58,71.6,64,52,6.71,RU,1596609448
307,balkhash,-2.65,10,72.55,81,100,3.38,GA,1596609449
308,pemangkat,4.93,-52.33,73.4,100,5,8.08,GF,1596609449
309,tiznit,-6.13,12.37,73.4,88,40,3.56,AO,1596609451
310,linjiang,56.01,90.39,74.3,48,0,9.62,RU,1596609453
311,lemesos,-11.57,-77.27,59,82,90,10.29,PE,1596609453
312,le port,3.38,-59.8,75.54,88,100,0.58,GY,1596609453
313,grand gaube,-31.67,18.5,50.05,60,0,0.78,ZA,1596609454
314,colomi,71.97,102.5,63.81,86,100,11.92,RU,1596609454
315,bethel,69.3,139.9,67.3,28,74,10.13,RU,1596609454
316,maningrida,63.44,-20.27,52.77,92,100,24.32,IS,1596609455
317,carahue,4.41,114.01,86,74,40,11.41,MY,1596609455
318,ludvika,49,-64.4,62.6,77,90,9.17,CA,1596609455
319,vila franca do campo,30.87,120.09,99,71,100,8.19,CN,1596609456
320,innisfail,50.1,-91.92,51.8,100,5,4.7,CA,1596609455
321,hokitika,36.85,-75.98,78.8,88,40,5.82,US,1596609373
322,luba,-20.22,-70.14,57.2,71,20,3.36,CL,1596609456
323,alofi,19.22,-98.81,64.4,72,75,3.36,MX,1596609457
324,novo aripuana,49.71,72.59,80.6,44,0,17.9,KZ,1596609457
325,flin flon,65.28,-126.83,59,100,90,10.29,CA,1596609457
326,ambato,42.42,-122.83,77,47,1,1.74,US,1596609458
327,kamenskoye,36.62,-121.92,60.01,93,25,3,US,1596609235
328,saldanha,-3.48,23.43,76.23,67,100,2.39,CD,1596609458
329,turtkul,9.49,50.81,89.6,43,100,34.05,SO,1596609375
330,pevek,52.05,-9.52,64.4,93,75,11.41,IE,1596609459
331,kovernino,62.58,6.13,55.4,82,75,12.75,NO,1596609460
332,xiamen,4.42,-7.35,71.08,82,40,4.03,CI,1596609460
333,ville-marie,60.14,-45.24,43.18,85,2,5.1,GL,1596609461
334,mae sai,36.72,117.5,88,72,100,1.01,CN,1596609461
335,ingham,22.89,-109.91,84,79,0,1.99,MX,1596609461
336,louisbourg,4.85,31.58,76.48,75,100,1.74,SS,1596609462
337,mercedes,68.05,39.51,64.81,64,97,15.03,RU,1596609462
338,thohoyandou,47.87,88.12,79.41,30,52,11.9,CN,1596609462
339,soloneshnoye,-30.3,153.13,66,63,0,5.82,AU,1596609381
340,felidhoo,22.81,115.83,82.17,84,100,7,CN,1596609463
341,kortkeros,-5.09,-81.11,60.33,85,0,9.26,PE,1596609463
342,gamba,21.46,-71.14,82.42,85,91,19.19,TC,1596609463
343,cayenne,49.75,142.83,52.83,93,100,3.22,RU,1596609464
344,soyo,32.87,59.22,80.6,28,0,16.11,IR,1596609464
345,nazarovo,-37.81,144.89,51.01,81,75,8.05,AU,1596609464
346,chancay,6.12,81.12,86,84,40,12.75,LK,1596609464
347,lethem,-29.54,31.21,59,82,90,9.17,ZA,1596609465
348,vredendal,43.75,-81.72,64.99,87,34,13.2,CA,1596609465
349,khatanga,42.8,93.45,103.3,11,0,8.79,CN,1596609466
350,deputatskiy,-1.2,-46.02,75.25,93,4,3.6,BR,1596609466
351,vestmannaeyjar,61.01,35.48,64.53,80,100,12.82,RU,1596609467
352,miri,28.5,-13.86,71.6,78,40,13.87,ES,1596609467
353,riviere-au-renard,65.75,150.85,67.8,34,0,1.74,RU,1596609467
354,amderma,33.5,133.9,84.2,79,75,8.05,JP,1596609468
355,huzhou,54.72,158.62,67.77,62,0,2.35,RU,1596609469
356,sioux lookout,47.06,6.75,53.6,66,0,9.17,CH,1596609469
357,virginia beach,-33.3,-66.34,53.76,74,0,3.94,AR,1596609470
358,iquique,64.22,41.66,62.6,93,40,4.47,RU,1596609470
359,miraflores,5.58,-55.18,77,94,20,2.24,SR,1596609470
360,shakhtinsk,52.15,-6.99,62.01,95,100,7,IE,1596609471
361,norman wells,69.22,-51.1,42.8,87,98,8.05,GL,1596609471
362,jackson,64.5,-165.41,55.99,66,75,4.7,US,1596609299
363,pacific grove,18.22,42.51,71.6,68,67,7.43,SA,1596609472
364,lodja,47.97,80.44,84.94,28,0,11.92,KZ,1596609472
365,bandarbeyla,-6.64,-51.99,67.96,62,0,2.37,BR,1596609472
366,killarney,-21.37,55.62,72,64,46,13.87,RE,1596609472
367,roald,64.75,177.48,59,51,40,8.95,RU,1596609182
368,tabou,29.83,106.43,98.6,44,100,8.95,CN,1596609473
369,nanortalik,58.3,-134.42,57.2,87,90,18.34,US,1596609473
370,mingshui,-13.28,-50.16,65.35,52,0,5.95,BR,1596609473
371,cabo san lucas,17.98,73.47,76.73,92,100,7.43,IN,1596609474
372,juba,71,24.66,51.8,93,75,5.82,NO,1596609474
373,ostrovnoy,44.37,-100.35,62.01,93,20,5.82,US,1596609187
374,altay,64.86,-147.8,60.8,82,75,2.35,US,1596609475
375,coffs harbour,37.47,-105.87,55.4,54,1,5.82,US,1596609475
376,jieshi,65.58,-171,46.15,83,86,5.14,RU,1596609475
377,paita,-13.7,-76.22,60.8,82,90,10.29,PE,1596609436
378,cockburn town,20.5,-10.07,87.57,51,56,23.24,MR,1596609476
379,smirnykh,55.3,89.83,69.28,65,3,12.06,RU,1596609476
380,birjand,13.98,-14.8,76.33,90,95,7.74,SN,1596609477
381,seddon,46.49,135.88,70.48,92,23,4.94,RU,1596609477
382,hambantota,47.73,-3.43,64.4,82,90,4.7,FR,1596609477
383,ballitoville,-9.77,37.93,79.29,46,0,5.44,TZ,1596609477
384,goderich,-20.21,57.76,72,77,40,6.93,MU,1596609478
385,ust-kamchatsk,26.71,-108.32,77.76,67,93,3.58,MX,1596609478
386,hami,14.69,-17.44,78.8,83,20,5.82,SN,1596609479
387,carutapera,-16.81,26.95,68.5,45,0,5.26,ZM,1596609479
388,voznesenye,28.37,129.48,89.6,75,40,10.29,JP,1596609479
389,puerto del rosario,-36.72,-73.12,50,100,3,2.24,CL,1596609480
390,zyryanka,-6.88,112.38,86.5,60,16,9.51,ID,1596609480
391,aki,-26.96,-50.43,44.44,100,19,2.75,BR,1596609480
392,milkovo,54.91,64.43,83.03,43,82,14.7,RU,1596609481
393,rungata,37.46,-122.43,61,87,90,11.41,US,1596609420
394,le locle,44.83,-87.38,51.8,76,75,5.01,US,1596609481
395,san luis,55.31,76.76,79.5,44,0,11.43,RU,1596609482
396,kholmogory,16.86,-99.89,79.77,85,100,5.68,MX,1596609321
397,kuche,8.2,-59.78,72.07,97,100,1.72,GY,1596609482
398,onverwacht,9.84,-83.87,69.8,94,100,3.36,CR,1596609482
399,dunmore east,7.53,-12.51,74.28,76,92,5.57,SL,1596609483
400,ilulissat,66.15,-65.71,50.86,84,100,1.5,CA,1596609484
401,nome,34.58,-118.12,75.2,36,1,14.99,US,1596609186
402,abha,-3.8,102.27,80.73,83,99,10.16,ID,1596609484
403,ayagoz,24.09,32.91,102.33,16,0,7.76,EG,1596609485
404,sao felix do xingu,63.05,179.32,53.83,72,16,6.44,RU,1596609485
405,saint-joseph,42.75,-88.08,54,100,1,4.14,US,1596609452
406,anadyr,52.52,111.54,68.32,70,24,5.01,RU,1596609486
407,beibei,4.92,29.47,70.2,90,100,3.42,SS,1596609486
408,juneau,-16.45,-39.06,64.4,77,75,4.7,BR,1596609486
409,sao miguel do araguaia,23.22,-106.42,86,87,58,1.01,MX,1596609487
410,poladpur,37.09,15.28,80.01,50,36,13.87,IT,1596609267
411,havoysund,18.39,42.45,73.4,56,68,8.05,SA,1596609487
412,pierre,64.84,-147.72,60.8,87,20,3.36,US,1596609206
413,college,40.45,124.07,78.48,85,100,5.14,CN,1596609488
414,alamosa,6.16,-75.37,55.4,100,75,2.24,CO,1596609488
415,lavrentiya,35.3,37.18,88.52,37,0,16.17,SY,1596609488
416,pisco,56.71,42.67,74.26,52,91,1.99,RU,1596609489
417,grand river south east,48.23,9.88,51.01,93,90,3.36,DE,1596609489
418,adrar,12.52,-70.03,84.2,79,40,24.16,AW,1596609489
419,uzhur,25.02,37.27,93.87,44,0,11.7,SA,1596609259
420,koungheul,60.37,93.04,70.86,45,100,7.76,RU,1596609490
421,vostok,4.12,43.89,78.4,62,98,22.48,SO,1596609490
422,ploemeur,-26.65,15.16,51.8,66,0,14.99,NA,1596609490
423,liwale,-36.62,-71.83,55,93,75,9.17,CL,1596609491
424,sumbawa,33.34,44.4,95,36,0,16.11,IQ,1596609349
425,quatre cocos,45.89,20.63,75.99,88,20,4.7,RO,1596609491
426,choix,45.02,-93.22,64.4,72,1,4.41,US,1596609492
427,tarudant,3.78,72.97,83.23,77,100,14.25,MV,1596609493
428,zhitikara,34.83,-82.6,73.99,100,90,3.38,US,1596609493
429,dakar,-30.18,-50.21,58.44,91,0,11.05,BR,1596609493
430,choma,1.2,-70.17,69.84,98,90,1.99,CO,1596609493
431,naze,65.99,57.53,68.5,58,12,15.86,RU,1596609495
432,talcahuano,20.52,-13.05,81.05,66,0,11.43,MR,1596609304
433,paciran,39.7,119.15,85.23,63,100,9.95,CN,1596609495
434,santa cecilia,70.37,31.11,51.8,93,90,14.99,NO,1596609496
435,kurtamysh,35.2,-111.65,73.99,38,1,7.65,US,1596609302
436,half moon bay,35.05,-97.94,70,68,1,9.17,US,1596609253
437,marcona,37.48,141,91.99,61,100,10.94,JP,1596609496
438,sturgeon bay,20.37,-102.92,69.8,73,75,3.96,MX,1596609497
439,chany,-29.95,-71.34,51.8,87,0,6.93,CL,1596609497
440,acapulco,12.18,-0.35,74.32,84,45,10.51,BF,1596609497
441,mabaruma,1.65,14.58,74.34,76,3,4.92,CG,1596609498
442,paraiso,5.1,73.07,82.15,81,100,18.1,MV,1596609498
443,cockburn harbour,-6.88,112.21,86.67,59,37,9.28,ID,1596609498
444,guajara-mirim,43.62,20.9,64.4,100,75,4.7,RS,1596609499
445,bonthe,18.43,-68.97,82.4,88,20,5.82,DO,1596609499
446,pangnirtung,0.52,25.2,71.6,100,90,0.83,CD,1596609499
447,palmdale,38.93,100.45,94.55,22,100,4.09,CN,1596609499
448,bengkulu,64.23,27.73,57.2,93,75,3.36,FI,1596609500
449,aswan,10.23,-66.66,75.2,88,40,2.19,VE,1596609500
450,yirol,52.3,86.2,76.46,51,41,10.31,RU,1596609501
451,beringovskiy,-43.53,172.63,48,87,21,5.82,NZ,1596609423
452,racine,20.78,80.72,82.31,80,100,6.44,IN,1596609501
453,sosnovo-ozerskoye,-24.63,17.97,52,50,0,5.32,NA,1596609502
454,maridi,41.12,80.26,95,14,42,3.27,CN,1596609502
455,porto seguro,68.31,-53.46,41.76,81,100,3.47,GL,1596609503
456,mazatlan,69.49,88.4,66.2,59,82,6.71,RU,1596609503
457,syracuse,41.17,75.81,72.43,26,100,1.28,KG,1596609469
458,faya,37.5,23.45,84.99,64,0,4,GR,1596609504
459,fairbanks,25.52,90.22,87.75,75,91,7.2,IN,1596609504
460,fengcheng,52.32,7.78,61,67,100,4.7,DE,1596609505
461,rionegro,-4.58,-81.27,62.01,82,0,15.52,PE,1596609505
462,abu samrah,41.96,42.96,75.2,73,0,3.36,GE,1596609505
463,pestyaki,14.2,43.32,87.44,63,99,4.52,YE,1596609506
464,laupheim,2.43,103.84,87.8,79,40,4.7,MY,1596609506
465,oranjestad,0.2,30,72.18,50,43,4.16,UG,1596609507
466,umm lajj,-39.03,-67.58,44.6,81,0,3.36,AR,1596609507
467,severo-yeniseyskiy,49.17,-101.8,59.67,92,100,4.85,CA,1596609507
468,xuddur,7.47,4.07,69.85,88,64,2.84,NG,1596609507
469,luderitz,5.52,5.75,74.25,80,0,2.46,NG,1596609508
470,coihueco,11.71,-72.27,83.17,71,98,17.6,CO,1596609508
471,baghdad,50.45,-104.62,57.2,100,20,5.82,CA,1596609275
472,comlosu mare,-43.25,-65.31,49.24,56,93,15.84,AR,1596609224
473,saint anthony,20.89,-156.47,80.6,61,1,14.99,US,1596609258
474,mahibadhoo,9.45,18.94,76.77,82,79,7.31,TD,1596609509
475,easley,63.19,64.42,73.4,40,0,5.35,RU,1596609510
476,cidreira,-40.81,-63,46,91,100,1.01,AR,1596609510
477,mitu,-23.23,-51.67,58.06,71,0,13.49,BR,1596609510
478,usinsk,42.33,142.37,73.8,88,100,12.8,JP,1596609510
479,atar,37.5,61.97,86,35,0,9.17,TM,1596609511
480,changli,16.32,-98.02,77.67,89,100,1.7,MX,1596609511
481,vardo,5.69,-76.66,74.75,96,98,1.39,CO,1596609511
482,flagstaff,63.01,112.47,77.79,34,30,5.82,RU,1596609512
483,chickasha,54.7,78.66,80.04,41,0,13.53,RU,1596609512
484,namie,-8.46,-76.46,69.44,70,83,2.59,PE,1596609512
485,poncitlan,24.93,73.82,91.4,63,75,6.93,IN,1596609513
486,coquimbo,45.09,133.51,81.34,76,0,6.15,RU,1596609513
487,koupela,26.18,127.76,91.4,59,20,10.29,JP,1596609513
488,sembe,21.64,69.61,89.6,75,75,9.17,IN,1596609513
489,eydhafushi,6.5,2.6,75.2,83,40,13.87,BJ,1596609424
490,labuhan,9.41,45.06,78.58,46,100,26.91,SO,1596609514
491,vrnjacka banja,-18.06,13.84,64.92,28,0,1.77,NA,1596609515
492,la romana,20.57,78.83,84.2,79,90,3.36,IN,1596609515
493,kisangani,-35.17,173.17,55.31,86,98,2.91,NZ,1596609515
494,zhangye,59.38,143.3,61.21,71,0,10.58,RU,1596609516
495,kajaani,36.65,53.3,77,69,75,6.93,IR,1596609465
496,sentyabrskiy,11.54,-72.91,80.08,82,28,7.61,CO,1596609516
497,santa teresa,-8.14,159.59,82.8,76,83,8.93,SB,1596609516
498,krasnogorskoye,14.19,-90.27,68,88,75,13.87,GT,1596609517
499,christchurch,61.05,28.93,62.01,91,100,5.99,RU,1596609517
500,ambagarh chauki,60.42,134.53,77.56,35,71,3.94,RU,1596609517
501,mariental,-0.88,29.65,80.83,45,0,1.72,UG,1596609518
502,aksu,51.32,42.77,73,59,0,11.99,RU,1596609518
503,kangaatsiaq,1.74,98.78,86.31,58,100,5.1,ID,1596609518
504,talnakh,-30.65,24.01,46.51,62,0,9.4,ZA,1596609519
505,at-bashi,24.47,88.07,93.4,61,42,24.16,IN,1596609519
506,poros,-0.72,8.78,77,88,75,7.05,GA,1596609367
507,tura,-20.32,118.57,77,41,99,16.11,AU,1596609520
508,mettingen,47.52,122.88,78.46,56,84,7.74,CN,1596609520
509,talara,9.9,4.42,72.01,88,32,6.78,NG,1596609520
510,khani,61.58,-149.44,59,82,1,1.72,US,1596609520
511,phumi samraong,-2.92,-39.92,76.66,68,38,16.64,BR,1596609521
512,zabid,-23.7,133.88,82.4,18,98,27.51,AU,1596609385
513,mersing,20.2,1.01,81.88,60,0,12.21,ML,1596609521
514,kilembe,21.28,-88.93,76.19,94,13,4.16,MX,1596609522
515,general roca,22.28,113.57,86,84,40,14.99,CN,1596609522
516,carnduff,66.42,112.4,77,29,40,4.47,RU,1596609522
517,lalupon,42.92,-112.47,66.99,36,1,5.82,US,1596609523
518,warri,7.71,81.69,92.39,49,100,15.14,LK,1596609523
519,uribia,46.62,10.7,54,93,40,11.41,IT,1596609523
520,regina,-7.3,27.42,81.64,28,44,3.22,CD,1596609524
521,trelew,-25.67,-56.92,61.99,63,0,5.59,PY,1596609524
522,kahului,38.8,-9.45,66,88,20,13.87,PT,1596609525
523,kyabe,50.7,-127.42,53.6,93,5,3.36,CA,1596609525
524,igrim,-5.79,-35.21,71.6,88,40,4.7,BR,1596609525
525,viedma,64.89,-23.71,49.21,91,100,16.71,IS,1596609433
526,astorga,34.48,136.7,86,74,75,10.29,JP,1596609526
527,shizunai,64.47,11.5,57.2,82,20,12.75,NO,1596609526
528,murgab,28.71,-81.21,77,88,1,3.04,US,1596609285
529,pinotepa nacional,-31.93,115.83,68,52,20,12.75,AU,1596609353
530,quibdo,53.05,90.91,72.88,48,0,10.67,RU,1596609527
531,chernyshevskiy,-21.34,55.48,72,64,64,13.87,RE,1596609528
532,zdvinsk,59.12,159.97,52.59,81,75,8.08,RU,1596609528
533,uchiza,61.92,63.02,74.68,37,0,2.77,RU,1596609528
534,nathdwara,-13.88,167.55,82.4,78,75,4.7,VU,1596609528
535,kirovskiy,6.76,-74.79,63.55,95,100,4.21,CO,1596609529
536,nishihara,61.99,-49.67,44.98,81,100,14.32,GL,1596609529
537,porbandar,52.42,136.49,52.29,96,100,12.48,RU,1596609529
538,porto novo,-20.74,116.85,79.65,20,100,11.05,AU,1596609266
539,solsvik,28.32,109.72,94.75,51,65,4.18,CN,1596609530
540,odweyne,10.17,-14.03,74.39,91,100,7.54,GN,1596609530
541,lushunkou,-9.67,-35.74,69.8,88,75,5.82,BR,1596609530
542,opuwo,44.65,-63.57,69.01,93,90,3.36,CA,1596609531
543,hinganghat,25.36,69.74,99.66,40,1,6.71,PK,1596609531
544,ahipara,34.88,-76.9,81,88,1,4.7,US,1596609531
545,okhotsk,14.72,-92.42,81.09,82,100,5.75,MX,1596609532
546,neka,57.73,61.25,69.85,69,100,8.16,RU,1596609532
547,riohacha,61.99,5.14,54,81,75,23.04,NO,1596609532
548,buala,52.37,-106.97,53.6,81,5,3.36,CA,1596609533
549,santa maria ixhuatan,60.72,-46.03,42.8,81,40,4.7,GL,1596609533
550,lesogorskiy,-11.38,43.28,75.2,73,20,5.82,KM,1596609533
551,ust-maya,1.33,172.98,82.4,83,40,6.93,KI,1596609534
552,ntungamo,56.47,10.33,59,87,75,5.82,DK,1596609534
553,kamenka,-4.38,-70.03,71.6,100,45,1.36,BR,1596609535
554,sibolga,-19.67,30.01,65.25,35,5,1.5,ZW,1596609535
555,de aar,56.7,104.25,73.99,43,99,3.91,RU,1596609535
556,jangipur,-9.43,159.95,84.2,70,20,9.17,SB,1596609536
557,port-gentil,13.22,18.34,77.36,79,99,11.92,TD,1596609536
558,port hedland,39.18,-84.53,63,87,1,4.47,US,1596609537
559,nianzishan,35,132.22,87.8,70,20,3.36,JP,1596609537
560,wawa,14,-7.75,71.67,92,26,13.18,ML,1596609537
